[
    {
        "": "0",
        "longitude": "-73.423",
        "latitude": "44.568",
        "code": "AUSA",
        "name": "Ausable Point  - DEC",
        "state": "NY",
        "nearest_town_distance": "5",
        "nearest_town_bearing": "E",
        "city": "Peru"
    },
    {
        "": "1",
        "longitude": "-76.807",
        "latitude": "42.485",
        "code": "BACK",
        "name": "Backbone Horse Camp",
        "state": "NY",
        "nearest_town_distance": "5",
        "nearest_town_bearing": "NE",
        "city": "Burdett"
    },
    {
        "": "2",
        "longitude": "-73.449",
        "latitude": "40.762",
        "code": "BATT",
        "name": "Battle Row",
        "state": "NY",
        "nearest_town_distance": "0",
        "nearest_town_bearing": "E",
        "city": "Old Bethpage"
    },
    {
        "": "3",
        "longitude": "-75.069",
        "latitude": "42.118",
        "code": "BEAR",
        "name": "Bear Spring Mountain - DEC",
        "state": "NY",
        "nearest_town_distance": "5",
        "nearest_town_bearing": "SE",
        "city": "Walton"
    },
    {
        "": "4",
        "longitude": "-74.07",
        "latitude": "41.229",
        "code": "BEVP",
        "name": "Beaver Pond - Harriman State Park",
        "state": "NY",
        "nearest_town_distance": "4",
        "nearest_town_bearing": "W",
        "city": "Stony Point"
    },
    {
        "": "5",
        "longitude": "-74.839",
        "latitude": "41.979",
        "code": "BEVK",
        "name": "Beaverkill - DEC",
        "state": "NY",
        "nearest_town_distance": "5",
        "nearest_town_bearing": "NE",
        "city": "Roscoe"
    },
    {
        "": "6",
        "longitude": "-73.925",
        "latitude": "41.27",
        "code": "BLUE",
        "name": "Blue Mountain Reservation",
        "state": "NY",
        "nearest_town_distance": "1",
        "nearest_town_bearing": "S",
        "city": "Peekskill"
    },
    {
        "": "7",
        "longitude": "-76.799",
        "latitude": "42.484",
        "code": "BLUB",
        "name": "Blueberry Patch",
        "state": "NY",
        "nearest_town_distance": "5",
        "nearest_town_bearing": "NE",
        "city": "Burdett"
    },
    {
        "": "8",
        "longitude": "-73.222",
        "latitude": "40.825",
        "code": "BLYD",
        "name": "Blydenburgh Park",
        "state": "NY",
        "nearest_town_distance": "2",
        "nearest_town_bearing": "SW",
        "city": "Smithtown"
    },
    {
        "": "9",
        "longitude": "-75.68",
        "latitude": "42.522",
        "code": "BOWM",
        "name": "Bowman Lake State Park",
        "state": "NY",
        "nearest_town_distance": "7",
        "nearest_town_bearing": "NW",
        "city": "Oxford"
    },
    {
        "": "10",
        "longitude": "-74.118",
        "latitude": "44.505",
        "code": "BUCK",
        "name": "Buck Pond - DEC",
        "state": "NY",
        "nearest_town_distance": "6",
        "nearest_town_bearing": "NE",
        "city": "Gabriels"
    },
    {
        "": "11",
        "longitude": "-76.265",
        "latitude": "44.163",
        "code": "BURN",
        "name": "Burnham Point State Park",
        "state": "NY",
        "nearest_town_distance": "4",
        "nearest_town_bearing": "NE",
        "city": "Cape Vincent"
    },
    {
        "": "12",
        "longitude": "-76.521",
        "latitude": "42.416",
        "code": "BUTT",
        "name": "Buttermilk Falls State Park",
        "state": "NY",
        "nearest_town_distance": "2",
        "nearest_town_bearing": "SW",
        "city": "Ithaca"
    },
    {
        "": "13",
        "longitude": "-78.846",
        "latitude": "42.037",
        "code": "CAIN",
        "name": "Cain Hollow (Quaker Area) - Allegany State Park",
        "state": "NY",
        "nearest_town_distance": "11",
        "nearest_town_bearing": "SW",
        "city": "Salamanca"
    },
    {
        "": "14",
        "longitude": "-74.468",
        "latitude": "43.125",
        "code": "CARO",
        "name": "Caroga Lake - DEC",
        "state": "NY",
        "nearest_town_distance": "10",
        "nearest_town_bearing": "NW",
        "city": "Johnstown"
    },
    {
        "": "15",
        "longitude": "-72.943",
        "latitude": "40.87",
        "code": "CATH",
        "name": "Cathedral Pines County Park",
        "state": "NY",
        "nearest_town_distance": "1",
        "nearest_town_bearing": "S",
        "city": "Middle Island"
    },
    {
        "": "16",
        "longitude": "-76.753",
        "latitude": "42.896",
        "code": "CAYU",
        "name": "Cayuga Lake State Park",
        "state": "NY",
        "nearest_town_distance": "2",
        "nearest_town_bearing": "SE",
        "city": "Seneca Falls"
    },
    {
        "": "17",
        "longitude": "-76.197",
        "latitude": "44.204",
        "code": "CEDP",
        "name": "Cedar Point State Park",
        "state": "NY",
        "nearest_town_distance": "6",
        "nearest_town_bearing": "SW",
        "city": "Clayton"
    },
    {
        "": "18",
        "longitude": "-72.226",
        "latitude": "41.028",
        "code": "CEDS",
        "name": "Cedar Point Suffolk County Park",
        "state": "NY",
        "nearest_town_distance": "5",
        "nearest_town_bearing": "NW",
        "city": "East Hampton"
    },
    {
        "": "19",
        "longitude": "-75.818",
        "latitude": "42.215",
        "code": "CHEN",
        "name": "Chenango Valley State Park",
        "state": "NY",
        "nearest_town_distance": "2",
        "nearest_town_bearing": "SE",
        "city": "Chenango Forks"
    },
    {
        "": "20",
        "longitude": "-73.41",
        "latitude": "42.622",
        "code": "CHER",
        "name": "Cherry Plain State Park",
        "state": "NY",
        "nearest_town_distance": "3",
        "nearest_town_bearing": "W",
        "city": "Cherry Plain"
    },
    {
        "": "21",
        "longitude": "-73.831",
        "latitude": "41.461",
        "code": "CLAR",
        "name": "Clarence Fahnestock State Park",
        "state": "NY",
        "nearest_town_distance": "8",
        "nearest_town_bearing": "W",
        "city": "Carmel"
    },
    {
        "": "22",
        "longitude": "-76.86",
        "latitude": "42.384",
        "code": "CLUT",
        "name": "Clute Memorial Park",
        "state": "NY",
        "nearest_town_distance": "1",
        "nearest_town_bearing": "E",
        "city": "Watkins Glen"
    },
    {
        "": "23",
        "longitude": "-75.14",
        "latitude": "44.892",
        "code": "COLE",
        "name": "Coles Creek State Park",
        "state": "NY",
        "nearest_town_distance": "4",
        "nearest_town_bearing": "NE",
        "city": "Waddington"
    },
    {
        "": "24",
        "longitude": "-75.743",
        "latitude": "42.3",
        "code": "COOK",
        "name": "Cook County Park",
        "state": "NY",
        "nearest_town_distance": "2",
        "nearest_town_bearing": "SE",
        "city": "Greene"
    },
    {
        "": "25",
        "longitude": "-73.52",
        "latitude": "42.121",
        "code": "COPA",
        "name": "Copake Falls - Taconic State Park",
        "state": "NY",
        "nearest_town_distance": "0",
        "nearest_town_bearing": "E",
        "city": "Copake Falls"
    },
    {
        "": "26",
        "longitude": "-74.821",
        "latitude": "44.197",
        "code": "CRAN",
        "name": "Cranberry Lake  - DEC",
        "state": "NY",
        "nearest_town_distance": "2",
        "nearest_town_bearing": "SE",
        "city": "Cranberry Lake"
    },
    {
        "": "27",
        "longitude": "-73.896",
        "latitude": "41.178",
        "code": "CROT",
        "name": "Croton Point Park",
        "state": "NY",
        "nearest_town_distance": "2",
        "nearest_town_bearing": "S",
        "city": "Croton-on-Huds"
    },
    {
        "": "28",
        "longitude": "-73.425",
        "latitude": "44.025",
        "code": "CROW",
        "name": "Crown Point - DEC",
        "state": "NY",
        "nearest_town_distance": "5",
        "nearest_town_bearing": "N",
        "city": "Crown Point"
    },
    {
        "": "29",
        "longitude": "-73.426",
        "latitude": "44.725",
        "code": "CUMB",
        "name": "Cumberland Bay State Park",
        "state": "NY",
        "nearest_town_distance": "2",
        "nearest_town_bearing": "NE",
        "city": "Plattsburg"
    },
    {
        "": "30",
        "longitude": "-72.738",
        "latitude": "40.771",
        "code": "CUPS",
        "name": "Cupsogue County Park",
        "state": "NY",
        "nearest_town_distance": "5",
        "nearest_town_bearing": "SW",
        "city": "Westhampton"
    },
    {
        "": "31",
        "longitude": "-78.433",
        "latitude": "42.902",
        "code": "DARI",
        "name": "Darien Lakes State Park",
        "state": "NY",
        "nearest_town_distance": "2",
        "nearest_town_bearing": "W",
        "city": "Darien Center"
    },
    {
        "": "32",
        "longitude": "-75.417",
        "latitude": "43.292",
        "code": "DELT",
        "name": "Delta Lake State Park",
        "state": "NY",
        "nearest_town_distance": "6",
        "nearest_town_bearing": "N",
        "city": "Rome"
    },
    {
        "": "33",
        "longitude": "-74.208",
        "latitude": "42.151",
        "code": "DEVI",
        "name": "Devils Tombstone - DEC",
        "state": "NY",
        "nearest_town_distance": "3",
        "nearest_town_bearing": "NE",
        "city": "Lanesville"
    },
    {
        "": "34",
        "longitude": "-75.997",
        "latitude": "44.33",
        "code": "DEWO",
        "name": "DeWolf Point State Park",
        "state": "NY",
        "nearest_town_distance": "3",
        "nearest_town_bearing": "N",
        "city": "Fineview"
    },
    {
        "": "35",
        "longitude": "-73.793",
        "latitude": "43.748",
        "code": "EAGL",
        "name": "Eagle Point - DEC",
        "state": "NY",
        "nearest_town_distance": "2",
        "nearest_town_bearing": "NE",
        "city": "Pottersville"
    },
    {
        "": "36",
        "longitude": "-75.223",
        "latitude": "42.327",
        "code": "EAST",
        "name": "East Sidney Dam Rec Area",
        "state": "NY",
        "nearest_town_distance": "9",
        "nearest_town_bearing": "E",
        "city": "Sidney"
    },
    {
        "": "37",
        "longitude": "-75.477",
        "latitude": "44.63",
        "code": "EELW",
        "name": "Eel Weir State Park",
        "state": "NY",
        "nearest_town_distance": "4",
        "nearest_town_bearing": "S",
        "city": "Ogdensburg"
    },
    {
        "": "38",
        "longitude": "-74.712",
        "latitude": "43.763",
        "code": "EIGH",
        "name": "Eighth Lake - DEC",
        "state": "NY",
        "nearest_town_distance": "4",
        "nearest_town_bearing": "E",
        "city": "Inlet"
    },
    {
        "": "39",
        "longitude": "-79.115",
        "latitude": "42.602",
        "code": "EVAN",
        "name": "Evangola State Park",
        "state": "NY",
        "nearest_town_distance": "2",
        "nearest_town_bearing": "N",
        "city": "Irving"
    },
    {
        "": "40",
        "longitude": "-76.689",
        "latitude": "43.343",
        "code": "FAIR",
        "name": "Fair Haven Beach State Park",
        "state": "NY",
        "nearest_town_distance": "2",
        "nearest_town_bearing": "N",
        "city": "Fair Haven"
    },
    {
        "": "41",
        "longitude": "-76.42",
        "latitude": "42.7",
        "code": "FILL",
        "name": "Fillmore Glen State Park",
        "state": "NY",
        "nearest_town_distance": "1",
        "nearest_town_bearing": "S",
        "city": "Moravia"
    },
    {
        "": "42",
        "longitude": "-74.365",
        "latitude": "44.308",
        "code": "FISH",
        "name": "Fish Creek Pond - DEC",
        "state": "NY",
        "nearest_town_distance": "8",
        "nearest_town_bearing": "NE",
        "city": "Tupper Lake"
    },
    {
        "": "43",
        "longitude": "-73.889",
        "latitude": "40.582",
        "code": "FLOB",
        "name": "Floyd Bennett Field - Gateway National Rec Area",
        "state": "NY",
        "nearest_town_distance": "6",
        "nearest_town_bearing": "SE",
        "city": "Brooklyn"
    },
    {
        "": "44",
        "longitude": "-74.525",
        "latitude": "43.905",
        "code": "FORK",
        "name": "Forked Lake - DEC",
        "state": "NY",
        "nearest_town_distance": "7",
        "nearest_town_bearing": "SW",
        "city": "Long Lake"
    },
    {
        "": "45",
        "longitude": "-74.059",
        "latitude": "40.605",
        "code": "FORW",
        "name": "Fort Wadsworth - Gateway National Rec Area",
        "state": "NY",
        "nearest_town_distance": "5",
        "nearest_town_bearing": "E",
        "city": "Staten Island"
    },
    {
        "": "46",
        "longitude": "-78.995",
        "latitude": "43.274",
        "code": "FOUR",
        "name": "Four Mile Creek State Park",
        "state": "NY",
        "nearest_town_distance": "3",
        "nearest_town_bearing": "NE",
        "city": "Youngstown"
    },
    {
        "": "47",
        "longitude": "-75.128",
        "latitude": "42.573",
        "code": "GILB",
        "name": "Gilbert Lake State Park",
        "state": "NY",
        "nearest_town_distance": "4",
        "nearest_town_bearing": "NW",
        "city": "Laurens"
    },
    {
        "": "48",
        "longitude": "-74.869",
        "latitude": "42.794",
        "code": "GLIM",
        "name": "Glimmerglass State Park",
        "state": "NY",
        "nearest_town_distance": "7",
        "nearest_town_bearing": "NE",
        "city": "Cooperstown"
    },
    {
        "": "49",
        "longitude": "-74.592",
        "latitude": "43.817",
        "code": "GOLB",
        "name": "Golden Beach - DEC",
        "state": "NY",
        "nearest_town_distance": "26",
        "nearest_town_bearing": "N",
        "city": "Piseco"
    },
    {
        "": "50",
        "longitude": "-78.483",
        "latitude": "43.374",
        "code": "GOLH",
        "name": "Golden Hill State Park",
        "state": "NY",
        "nearest_town_distance": "5",
        "nearest_town_bearing": "NE",
        "city": "Barker"
    },
    {
        "": "51",
        "longitude": "-75.995",
        "latitude": "44.279",
        "code": "GRAS",
        "name": "Grass Point State Park",
        "state": "NY",
        "nearest_town_distance": "6",
        "nearest_town_bearing": "SW",
        "city": "Alexandria Bay"
    },
    {
        "": "52",
        "longitude": "-76.005",
        "latitude": "43.056",
        "code": "GREE",
        "name": "Green Lakes State Park",
        "state": "NY",
        "nearest_town_distance": "2",
        "nearest_town_bearing": "N",
        "city": "Fayetteville"
    },
    {
        "": "53",
        "longitude": "-76.086",
        "latitude": "42.288",
        "code": "GREW",
        "name": "Greenwood County Park",
        "state": "NY",
        "nearest_town_distance": "16",
        "nearest_town_bearing": "NW",
        "city": "Binghamton"
    },
    {
        "": "54",
        "longitude": "-77.946",
        "latitude": "43.36",
        "code": "HAML",
        "name": "Hamlin Beach State Park",
        "state": "NY",
        "nearest_town_distance": "4",
        "nearest_town_bearing": "N",
        "city": "Hamlin"
    },
    {
        "": "55",
        "longitude": "-76.831",
        "latitude": "42.337",
        "code": "HAVA",
        "name": "Havana Glen",
        "state": "NY",
        "nearest_town_distance": "1",
        "nearest_town_bearing": "SE",
        "city": "Montour Falls"
    },
    {
        "": "56",
        "longitude": "-73.694",
        "latitude": "43.455",
        "code": "HEAR",
        "name": "Hearthstone Point - DEC",
        "state": "NY",
        "nearest_town_distance": "9",
        "nearest_town_bearing": "N",
        "city": "Lake George Vi"
    },
    {
        "": "57",
        "longitude": "-76.226",
        "latitude": "42.091",
        "code": "HICK",
        "name": "Hickories Park",
        "state": "NY",
        "nearest_town_distance": "2",
        "nearest_town_bearing": "SE",
        "city": "Owego"
    },
    {
        "": "58",
        "longitude": "-74.922",
        "latitude": "44.496",
        "code": "HIGL",
        "name": "Higley Flow State Park",
        "state": "NY",
        "nearest_town_distance": "4",
        "nearest_town_bearing": "S",
        "city": "Colton"
    },
    {
        "": "59",
        "longitude": "-72.016",
        "latitude": "41.008",
        "code": "HITH",
        "name": "Hither Hills State Park",
        "state": "NY",
        "nearest_town_distance": "4",
        "nearest_town_bearing": "SW",
        "city": "Montauk"
    },
    {
        "": "60",
        "longitude": "-75.373",
        "latitude": "42.595",
        "code": "HUNT",
        "name": "Hunts Pond",
        "state": "NY",
        "nearest_town_distance": "3",
        "nearest_town_bearing": "SW",
        "city": "New Berlin"
    },
    {
        "": "61",
        "longitude": "-72.629",
        "latitude": "40.927",
        "code": "INDI",
        "name": "Indian Island Park",
        "state": "NY",
        "nearest_town_distance": "2",
        "nearest_town_bearing": "E",
        "city": "Riverhead"
    },
    {
        "": "62",
        "longitude": "-75.677",
        "latitude": "44.559",
        "code": "JACQ",
        "name": "Jacques Cartier State Park",
        "state": "NY",
        "nearest_town_distance": "2",
        "nearest_town_bearing": "SW",
        "city": "Morristown"
    },
    {
        "": "63",
        "longitude": "-77.722",
        "latitude": "42.342",
        "code": "KANA",
        "name": "Kanakadea Park - Almond Lake",
        "state": "NY",
        "nearest_town_distance": "3",
        "nearest_town_bearing": "W",
        "city": "Hornell"
    },
    {
        "": "64",
        "longitude": "-75.93",
        "latitude": "44.324",
        "code": "KEEW",
        "name": "Keewaydin State Park",
        "state": "NY",
        "nearest_town_distance": "1",
        "nearest_town_bearing": "SW",
        "city": "Alexandria Bay"
    },
    {
        "": "65",
        "longitude": "-74.221",
        "latitude": "42.027",
        "code": "KENN",
        "name": "Kenneth L. Wilson - DEC",
        "state": "NY",
        "nearest_town_distance": "3",
        "nearest_town_bearing": "SE",
        "city": "Mt.Tremper"
    },
    {
        "": "66",
        "longitude": "-77.13",
        "latitude": "42.583",
        "code": "KEUK",
        "name": "Keuka Lake State Park",
        "state": "NY",
        "nearest_town_distance": "2",
        "nearest_town_bearing": "SW",
        "city": "Bluff Point"
    },
    {
        "": "67",
        "longitude": "-75.855",
        "latitude": "44.377",
        "code": "KRIN",
        "name": "Kring Point State Park",
        "state": "NY",
        "nearest_town_distance": "6",
        "nearest_town_bearing": "NW",
        "city": "Redwood"
    },
    {
        "": "68",
        "longitude": "-74.389",
        "latitude": "43.838",
        "code": "LAKD",
        "name": "Lake Durant - DEC",
        "state": "NY",
        "nearest_town_distance": "7",
        "nearest_town_bearing": "NW",
        "city": "Indian Lake"
    },
    {
        "": "69",
        "longitude": "-74.463",
        "latitude": "43.988",
        "code": "LAKE",
        "name": "Lake Eaton - DEC",
        "state": "NY",
        "nearest_town_distance": "2",
        "nearest_town_bearing": "NW",
        "city": "Long Lake"
    },
    {
        "": "70",
        "longitude": "-79.429",
        "latitude": "42.421",
        "code": "LAKR",
        "name": "Lake Erie State Park",
        "state": "NY",
        "nearest_town_distance": "2",
        "nearest_town_bearing": "N",
        "city": "Brocton"
    },
    {
        "": "71",
        "longitude": "-73.712",
        "latitude": "43.414",
        "code": "LAKG",
        "name": "Lake George Battleground - DEC",
        "state": "NY",
        "nearest_town_distance": "6",
        "nearest_town_bearing": "N",
        "city": "Lake George Vi"
    },
    {
        "": "72",
        "longitude": "-74.13",
        "latitude": "43.979",
        "code": "LAKH",
        "name": "Lake Harris - DEC",
        "state": "NY",
        "nearest_town_distance": "2",
        "nearest_town_bearing": "E",
        "city": "Newcomb"
    },
    {
        "": "73",
        "longitude": "-73.708",
        "latitude": "42.094",
        "code": "LAKT",
        "name": "Lake Taghkanic State Park",
        "state": "NY",
        "nearest_town_distance": "5",
        "nearest_town_bearing": "NW",
        "city": "Ancram"
    },
    {
        "": "74",
        "longitude": "-78.244",
        "latitude": "43.366",
        "code": "LAKB",
        "name": "Lakeside Beach State Park",
        "state": "NY",
        "nearest_town_distance": "3",
        "nearest_town_bearing": "N",
        "city": "Waterport"
    },
    {
        "": "75",
        "longitude": "-78.045",
        "latitude": "42.584",
        "code": "LETC",
        "name": "Letchworth State Park",
        "state": "NY",
        "nearest_town_distance": "3",
        "nearest_town_bearing": "S",
        "city": "Castile"
    },
    {
        "": "76",
        "longitude": "-74.394",
        "latitude": "43.651",
        "code": "LEWE",
        "name": "Lewey Lake - DEC",
        "state": "NY",
        "nearest_town_distance": "11",
        "nearest_town_bearing": "SW",
        "city": "Indian Lake"
    },
    {
        "": "77",
        "longitude": "-74.796",
        "latitude": "43.718",
        "code": "LIME",
        "name": "Limekiln Lake - DEC",
        "state": "NY",
        "nearest_town_distance": "2",
        "nearest_town_bearing": "S",
        "city": "Inlet"
    },
    {
        "": "78",
        "longitude": "-73.579",
        "latitude": "44.139",
        "code": "LINC",
        "name": "Lincoln Pond - DEC",
        "state": "NY",
        "nearest_town_distance": "2",
        "nearest_town_bearing": "SE",
        "city": "New Russia"
    },
    {
        "": "79",
        "longitude": "-74.735",
        "latitude": "42.036",
        "code": "LITP",
        "name": "Little Pond - DEC",
        "state": "NY",
        "nearest_town_distance": "9",
        "nearest_town_bearing": "SW",
        "city": "Margaretville"
    },
    {
        "": "80",
        "longitude": "-74.551",
        "latitude": "43.417",
        "code": "LITS",
        "name": "Little Sand Point - DEC",
        "state": "NY",
        "nearest_town_distance": "2",
        "nearest_town_bearing": "SW",
        "city": "Piseco"
    },
    {
        "": "81",
        "longitude": "-76.221",
        "latitude": "44.026",
        "code": "LONG",
        "name": "Long Point State Park",
        "state": "NY",
        "nearest_town_distance": "4",
        "nearest_town_bearing": "S",
        "city": "Three Mile Bay"
    },
    {
        "": "82",
        "longitude": "-73.826",
        "latitude": "43.361",
        "code": "LUZE",
        "name": "Luzerne - DEC",
        "state": "NY",
        "nearest_town_distance": "3",
        "nearest_town_bearing": "N",
        "city": "Lake Luzerne"
    },
    {
        "": "83",
        "longitude": "-73.616",
        "latitude": "44.616",
        "code": "MACO",
        "name": "Macomb Reservation State Park",
        "state": "NY",
        "nearest_town_distance": "3",
        "nearest_town_bearing": "W",
        "city": "Schuyler Falls"
    },
    {
        "": "84",
        "longitude": "-73.932",
        "latitude": "41.84",
        "code": "MARG",
        "name": "Margaret Norrie State Park",
        "state": "NY",
        "nearest_town_distance": "1",
        "nearest_town_bearing": "S",
        "city": "Staatsburg"
    },
    {
        "": "85",
        "longitude": "-74.411",
        "latitude": "42.547",
        "code": "MAX",
        "name": "Max V Shaul State Park",
        "state": "NY",
        "nearest_town_distance": "2",
        "nearest_town_bearing": "SW",
        "city": "Fultonham"
    },
    {
        "": "86",
        "longitude": "-72.373",
        "latitude": "41.104",
        "code": "MCCA",
        "name": "McCanns Campground",
        "state": "NY",
        "nearest_town_distance": "1",
        "nearest_town_bearing": "W",
        "city": "Greenport"
    },
    {
        "": "87",
        "longitude": "-74.287",
        "latitude": "44.578",
        "code": "MEAC",
        "name": "Meacham Lake - DEC",
        "state": "NY",
        "nearest_town_distance": "19",
        "nearest_town_bearing": "S",
        "city": "Malone"
    },
    {
        "": "88",
        "longitude": "-74.399",
        "latitude": "43.493",
        "code": "MOFF",
        "name": "Moffitt Beach - DEC",
        "state": "NY",
        "nearest_town_distance": "2",
        "nearest_town_bearing": "W",
        "city": "Speculator"
    },
    {
        "": "89",
        "longitude": "-74.691",
        "latitude": "41.957",
        "code": "MONG",
        "name": "Mongaup Pond - DEC",
        "state": "NY",
        "nearest_town_distance": "4",
        "nearest_town_bearing": "NE",
        "city": "DeBruce"
    },
    {
        "": "90",
        "longitude": "-76.852",
        "latitude": "42.354",
        "code": "MONT",
        "name": "Montour Marina",
        "state": "NY",
        "nearest_town_distance": "1",
        "nearest_town_bearing": "NW",
        "city": "Montour Falls"
    },
    {
        "": "91",
        "longitude": "-73.707",
        "latitude": "43.227",
        "code": "MORE",
        "name": "Moreau Lake State Park",
        "state": "NY",
        "nearest_town_distance": "4",
        "nearest_town_bearing": "NW",
        "city": "Gansevoort"
    },
    {
        "": "92",
        "longitude": "-74.652",
        "latitude": "41.748",
        "code": "MORN",
        "name": "Morningside Park",
        "state": "NY",
        "nearest_town_distance": "2",
        "nearest_town_bearing": "NW",
        "city": "South Fallsburg"
    },
    {
        "": "93",
        "longitude": "-73.569",
        "latitude": "41.309",
        "code": "MOUL",
        "name": "Mountain Lakes Park",
        "state": "NY",
        "nearest_town_distance": "2",
        "nearest_town_bearing": "S",
        "city": "North Salem"
    },
    {
        "": "94",
        "longitude": "-74.518",
        "latitude": "41.699",
        "code": "MOUN",
        "name": "Mountaindale Park",
        "state": "NY",
        "nearest_town_distance": "1",
        "nearest_town_bearing": "NE",
        "city": "Mountain Dale"
    },
    {
        "": "95",
        "longitude": "-76.734",
        "latitude": "42.044",
        "code": "NEWT",
        "name": "Newtown Battlefield State Park",
        "state": "NY",
        "nearest_town_distance": "5",
        "nearest_town_bearing": "SE",
        "city": "Elmira"
    },
    {
        "": "96",
        "longitude": "-74.982",
        "latitude": "43.688",
        "code": "NICK",
        "name": "Nicks Lake - DEC",
        "state": "NY",
        "nearest_town_distance": "9",
        "nearest_town_bearing": "S",
        "city": "Webb"
    },
    {
        "": "97",
        "longitude": "-74.037",
        "latitude": "42.203",
        "code": "NORS",
        "name": "North/South Lake  - DEC",
        "state": "NY",
        "nearest_town_distance": "3",
        "nearest_town_bearing": "E",
        "city": "Haines Falls"
    },
    {
        "": "98",
        "longitude": "-74.18",
        "latitude": "43.187",
        "code": "NORT",
        "name": "Northampton Beach - DEC",
        "state": "NY",
        "nearest_town_distance": "3",
        "nearest_town_bearing": "S",
        "city": "Northville"
    },
    {
        "": "99",
        "longitude": "-76.109",
        "latitude": "43.218",
        "code": "ONEI",
        "name": "Oneida Shores County Park",
        "state": "NY",
        "nearest_town_distance": "2",
        "nearest_town_bearing": "SE",
        "city": "Brewereton"
    },
    {
        "": "100",
        "longitude": "-77.407",
        "latitude": "42.71",
        "code": "ONTA",
        "name": "Ontario County Park - Gannet Hill",
        "state": "NY",
        "nearest_town_distance": "6",
        "nearest_town_bearing": "N",
        "city": "Naples"
    },
    {
        "": "101",
        "longitude": "-75.418",
        "latitude": "42.181",
        "code": "OQUA",
        "name": "Oquaga Creek State Park",
        "state": "NY",
        "nearest_town_distance": "8",
        "nearest_town_bearing": "S",
        "city": "Bainbridge"
    },
    {
        "": "102",
        "longitude": "-73.679",
        "latitude": "43.885",
        "code": "PARA",
        "name": "Paradox Lake - DEC",
        "state": "NY",
        "nearest_town_distance": "2",
        "nearest_town_bearing": "W",
        "city": "Paradox"
    },
    {
        "": "103",
        "longitude": "-76.667",
        "latitude": "42.232",
        "code": "PARK",
        "name": "Park Station Rec Area",
        "state": "NY",
        "nearest_town_distance": "3",
        "nearest_town_bearing": "N",
        "city": "Erin"
    },
    {
        "": "104",
        "longitude": "-75.344",
        "latitude": "43.403",
        "code": "PIXL",
        "name": "Pixley Falls State Park",
        "state": "NY",
        "nearest_town_distance": "6",
        "nearest_town_bearing": "S",
        "city": "Boonville"
    },
    {
        "": "105",
        "longitude": "-74.582",
        "latitude": "43.399",
        "code": "POIN",
        "name": "Point Comfort - DEC",
        "state": "NY",
        "nearest_town_distance": "4",
        "nearest_town_bearing": "SW",
        "city": "Piseco"
    },
    {
        "": "106",
        "longitude": "-73.503",
        "latitude": "44.404",
        "code": "POKE",
        "name": "Poke-O-Moonshine - DEC",
        "state": "NY",
        "nearest_town_distance": "41",
        "nearest_town_bearing": "N",
        "city": "Schroon Lake"
    },
    {
        "": "107",
        "longitude": "-74.54",
        "latitude": "43.428",
        "code": "POPL",
        "name": "Poplar Point - DEC",
        "state": "NY",
        "nearest_town_distance": "1",
        "nearest_town_bearing": "SW",
        "city": "Piseco"
    },
    {
        "": "108",
        "longitude": "-73.571",
        "latitude": "43.838",
        "code": "PUTN",
        "name": "Putnam Pond - DEC",
        "state": "NY",
        "nearest_town_distance": "7",
        "nearest_town_bearing": "W",
        "city": "Ticonderoga"
    },
    {
        "": "109",
        "longitude": "-78.747",
        "latitude": "42.097",
        "code": "REDH",
        "name": "Red House - Allegany State Park",
        "state": "NY",
        "nearest_town_distance": "4",
        "nearest_town_bearing": "S",
        "city": "Salamanca"
    },
    {
        "": "110",
        "longitude": "-75.75",
        "latitude": "44.035",
        "code": "REMI",
        "name": "Remington Park RV  Military - Fort Drum",
        "state": "NY",
        "nearest_town_distance": "1",
        "nearest_town_bearing": "SE",
        "city": "Fort Drum"
    },
    {
        "": "111",
        "longitude": "-76.546",
        "latitude": "42.398",
        "code": "ROBH",
        "name": "Robert H. Treman State Park",
        "state": "NY",
        "nearest_town_distance": "4",
        "nearest_town_bearing": "SW",
        "city": "Ithaca"
    },
    {
        "": "112",
        "longitude": "-74.87",
        "latitude": "44.986",
        "code": "ROBM",
        "name": "Robert Moses State Park",
        "state": "NY",
        "nearest_town_distance": "4",
        "nearest_town_bearing": "N",
        "city": "Massena"
    },
    {
        "": "113",
        "longitude": "-73.488",
        "latitude": "43.789",
        "code": "ROGE",
        "name": "Rogers Rock - DEC",
        "state": "NY",
        "nearest_town_distance": "5",
        "nearest_town_bearing": "SW",
        "city": "Ticonderoga"
    },
    {
        "": "114",
        "longitude": "-74.407",
        "latitude": "44.307",
        "code": "ROLL",
        "name": "Rollins Pond - DEC",
        "state": "NY",
        "nearest_town_distance": "6",
        "nearest_town_bearing": "NE",
        "city": "Tupper Lake"
    },
    {
        "": "115",
        "longitude": "-74.027",
        "latitude": "41.378",
        "code": "ROUN",
        "name": "Round Pond Military",
        "state": "NY",
        "nearest_town_distance": "4",
        "nearest_town_bearing": "S",
        "city": "Cornwall"
    },
    {
        "": "116",
        "longitude": "-73.508",
        "latitude": "41.983",
        "code": "RUDD",
        "name": "Rudd Pond - Taconic State Park",
        "state": "NY",
        "nearest_town_distance": "2",
        "nearest_town_bearing": "N",
        "city": "Millerton"
    },
    {
        "": "117",
        "longitude": "-74.294",
        "latitude": "43.36",
        "code": "SACA",
        "name": "Sacandaga - DEC",
        "state": "NY",
        "nearest_town_distance": "2",
        "nearest_town_bearing": "S",
        "city": "Wells"
    },
    {
        "": "118",
        "longitude": "-76.902",
        "latitude": "42.724",
        "code": "SAMP",
        "name": "Sampson State Park",
        "state": "NY",
        "nearest_town_distance": "4",
        "nearest_town_bearing": "SW",
        "city": "Romulus"
    },
    {
        "": "119",
        "longitude": "-72.555",
        "latitude": "40.888",
        "code": "SEAR",
        "name": "Sears Bellows",
        "state": "NY",
        "nearest_town_distance": "2",
        "nearest_town_bearing": "NW",
        "city": "Hampton Bays"
    },
    {
        "": "120",
        "longitude": "-76.204",
        "latitude": "43.557",
        "code": "SELK",
        "name": "Selkirk Shores State Park",
        "state": "NY",
        "nearest_town_distance": "4",
        "nearest_town_bearing": "W",
        "city": "Pulaski"
    },
    {
        "": "121",
        "longitude": "-73.678",
        "latitude": "44.043",
        "code": "SHAR",
        "name": "Sharp Bridge - DEC",
        "state": "NY",
        "nearest_town_distance": "7",
        "nearest_town_bearing": "N",
        "city": "North Hudson"
    },
    {
        "": "122",
        "longitude": "-79.269",
        "latitude": "42.519",
        "code": "SHER",
        "name": "Sheridan Bay Park",
        "state": "NY",
        "nearest_town_distance": "3",
        "nearest_town_bearing": "NW",
        "city": "Sheridan"
    },
    {
        "": "123",
        "longitude": "-72.472",
        "latitude": "40.842",
        "code": "SHIN",
        "name": "Shinnecock East County Park",
        "state": "NY",
        "nearest_town_distance": "5",
        "nearest_town_bearing": "SW",
        "city": "Southampton"
    },
    {
        "": "124",
        "longitude": "-76.886",
        "latitude": "42.492",
        "code": "SMIT",
        "name": "Smith Memorial Park",
        "state": "NY",
        "nearest_town_distance": "1",
        "nearest_town_bearing": "SW",
        "city": "Hector"
    },
    {
        "": "125",
        "longitude": "-76.196",
        "latitude": "43.765",
        "code": "SOUT",
        "name": "Southwick Beach State Park",
        "state": "NY",
        "nearest_town_distance": "6",
        "nearest_town_bearing": "S",
        "city": "Henderson"
    },
    {
        "": "126",
        "longitude": "-78.636",
        "latitude": "42.592",
        "code": "SPRA",
        "name": "Sprague Brook Park",
        "state": "NY",
        "nearest_town_distance": "2",
        "nearest_town_bearing": "SE",
        "city": "Glenwood"
    },
    {
        "": "127",
        "longitude": "-74.678",
        "latitude": "42.995",
        "code": "STJO",
        "name": "St. Johnsville Campsite and Marina",
        "state": "NY",
        "nearest_town_distance": "0",
        "nearest_town_bearing": "S",
        "city": "St Johnsville"
    },
    {
        "": "128",
        "longitude": "-77.697",
        "latitude": "42.526",
        "code": "STON",
        "name": "Stony Brook State Park",
        "state": "NY",
        "nearest_town_distance": "2",
        "nearest_town_bearing": "S",
        "city": "Dansville"
    },
    {
        "": "129",
        "longitude": "-76.607",
        "latitude": "42.54",
        "code": "TAUG",
        "name": "Taughannock Falls State Park",
        "state": "NY",
        "nearest_town_distance": "3",
        "nearest_town_bearing": "E",
        "city": "Trumansburg"
    },
    {
        "": "130",
        "longitude": "-73.824",
        "latitude": "44.494",
        "code": "TAYL",
        "name": "Taylor Pond - DEC",
        "state": "NY",
        "nearest_town_distance": "8",
        "nearest_town_bearing": "NW",
        "city": "Au Sable Forks"
    },
    {
        "": "131",
        "longitude": "-71.901",
        "latitude": "41.056",
        "code": "THEO",
        "name": "Theodore Roosevelt County Park",
        "state": "NY",
        "nearest_town_distance": "3",
        "nearest_town_bearing": "NE",
        "city": "Montauk"
    },
    {
        "": "132",
        "longitude": "-74.046",
        "latitude": "42.653",
        "code": "THOM",
        "name": "Thompsons Lake State Park",
        "state": "NY",
        "nearest_town_distance": "3",
        "nearest_town_bearing": "NE",
        "city": "East Berne"
    },
    {
        "": "133",
        "longitude": "-75.963",
        "latitude": "42.398",
        "code": "UPPL",
        "name": "Upper Lisle",
        "state": "NY",
        "nearest_town_distance": "5",
        "nearest_town_bearing": "N",
        "city": "Whitney Point"
    },
    {
        "": "134",
        "longitude": "-75.725",
        "latitude": "43.178",
        "code": "VERO",
        "name": "Verona Beach State Park",
        "state": "NY",
        "nearest_town_distance": "1",
        "nearest_town_bearing": "S",
        "city": "Verona Beach"
    },
    {
        "": "135",
        "longitude": "-73.584",
        "latitude": "41.255",
        "code": "WARD",
        "name": "Ward Pound Ridge Reservation",
        "state": "NY",
        "nearest_town_distance": "5",
        "nearest_town_bearing": "E",
        "city": "Katonah"
    },
    {
        "": "136",
        "longitude": "-76.881",
        "latitude": "42.37",
        "code": "WATK",
        "name": "Watkins Glen State Park",
        "state": "NY",
        "nearest_town_distance": "1",
        "nearest_town_bearing": "SW",
        "city": "Watkins Glen"
    },
    {
        "": "137",
        "longitude": "-77.46",
        "latitude": "43.258",
        "code": "WEBS",
        "name": "Webster Park",
        "state": "NY",
        "nearest_town_distance": "4",
        "nearest_town_bearing": "NW",
        "city": "Webster"
    },
    {
        "": "138",
        "longitude": "-76.019",
        "latitude": "44.316",
        "code": "WELL",
        "name": "Wellesley Island State Park",
        "state": "NY",
        "nearest_town_distance": "2",
        "nearest_town_bearing": "N",
        "city": "Fineview"
    },
    {
        "": "139",
        "longitude": "-76.114",
        "latitude": "43.897",
        "code": "WEST",
        "name": "Westcott Beach State Park",
        "state": "NY",
        "nearest_town_distance": "5",
        "nearest_town_bearing": "NE",
        "city": "Henderson"
    },
    {
        "": "140",
        "longitude": "-75.462",
        "latitude": "43.702",
        "code": "WHET",
        "name": "Whetstone Gulf State Park",
        "state": "NY",
        "nearest_town_distance": "6",
        "nearest_town_bearing": "S",
        "city": "Lowville"
    },
    {
        "": "141",
        "longitude": "-73.724",
        "latitude": "41.953",
        "code": "WILC",
        "name": "Wilcox Memorial Park",
        "state": "NY",
        "nearest_town_distance": "4",
        "nearest_town_bearing": "E",
        "city": "Milan"
    },
    {
        "": "142",
        "longitude": "-72.805",
        "latitude": "40.963",
        "code": "WILD",
        "name": "Wildwood State Park",
        "state": "NY",
        "nearest_town_distance": "2",
        "nearest_town_bearing": "NE",
        "city": "Wading River"
    },
    {
        "": "143",
        "longitude": "-73.861",
        "latitude": "44.35",
        "code": "WILM",
        "name": "Wilmington Notch - DEC",
        "state": "NY",
        "nearest_town_distance": "4",
        "nearest_town_bearing": "SW",
        "city": "Wilmington"
    },
    {
        "": "144",
        "longitude": "-74.273",
        "latitude": "41.537",
        "code": "WIND",
        "name": "Winding Hills Park",
        "state": "NY",
        "nearest_town_distance": "2",
        "nearest_town_bearing": "W",
        "city": "Montgomery"
    },
    {
        "": "145",
        "longitude": "-74.37",
        "latitude": "42.033",
        "code": "WOOD",
        "name": "Woodland Valley - DEC",
        "state": "NY",
        "nearest_town_distance": "5",
        "nearest_town_bearing": "SW",
        "city": "Phoenicia"
    }
]